{
  "units": 30,
  "cover_radius_m": 250,
  "hotspots_total": 1590,
  "total_impact": 69438.9,
  "impact_removed": 7764.8,
  "coverage_pct": 11.2,
  "roster": [
    {
      "unit": 1,
      "h3": "8a60145b5447fff",
      "lat": 12.97731,
      "lng": 77.57075,
      "shift": "night",
      "anchor_pcis": 77.5,
      "cells_cleared": 3,
      "impact_removed": 183.1,
      "police_station": "Chamarajpet"
    },
    {
      "unit": 2,
      "h3": "8a6189209627fff",
      "lat": 12.93973,
      "lng": 77.69556,
      "shift": "morning",
      "anchor_pcis": 74.2,
      "cells_cleared": 4,
      "impact_removed": 234.3,
      "police_station": "HAL Old Airport"
    },
    {
      "unit": 3,
      "h3": "8a6189253687fff",
      "lat": 12.96653,
      "lng": 77.64153,
      "shift": "morning",
      "anchor_pcis": 74.2,
      "cells_cleared": 1,
      "impact_removed": 74.2,
      "police_station": "Jeevanbheemanagar"
    },
    {
      "unit": 4,
      "h3": "8a61892e16b7fff",
      "lat": 12.99619,
      "lng": 77.6684,
      "shift": "morning",
      "anchor_pcis": 72.9,
      "cells_cleared": 1,
      "impact_removed": 72.9,
      "police_station": "Mahadevapura"
    },
    {
      "unit": 5,
      "h3": "8a61892e0ccffff",
      "lat": 12.99527,
      "lng": 77.69652,
      "shift": "morning",
      "anchor_pcis": 72.2,
      "cells_cleared": 6,
      "impact_removed": 333.4,
      "police_station": "Mahadevapura"
    },
    {
      "unit": 6,
      "h3": "8a60145b58affff",
      "lat": 12.96569,
      "lng": 77.57373,
      "shift": "morning",
      "anchor_pcis": 71.4,
      "cells_cleared": 1,
      "impact_removed": 71.4,
      "police_station": "Chamarajpet"
    },
    {
      "unit": 7,
      "h3": "8a601690c2b7fff",
      "lat": 13.19126,
      "lng": 77.64622,
      "shift": "night",
      "anchor_pcis": 71.3,
      "cells_cleared": 3,
      "impact_removed": 191.0,
      "police_station": "Chikkajala"
    },
    {
      "unit": 8,
      "h3": "8a60145b5817fff",
      "lat": 12.96473,
      "lng": 77.57391,
      "shift": "night",
      "anchor_pcis": 71.1,
      "cells_cleared": 5,
      "impact_removed": 281.9,
      "police_station": "City Market"
    },
    {
      "unit": 9,
      "h3": "8a61892e3b6ffff",
      "lat": 12.9965,
      "lng": 77.66922,
      "shift": "night",
      "anchor_pcis": 71.1,
      "cells_cleared": 4,
      "impact_removed": 231.6,
      "police_station": "Mahadevapura"
    },
    {
      "unit": 10,
      "h3": "8a60145b49a7fff",
      "lat": 12.97129,
      "lng": 77.59783,
      "shift": "morning",
      "anchor_pcis": 70.4,
      "cells_cleared": 4,
      "impact_removed": 265.2,
      "police_station": "Cubbon Park"
    },
    {
      "unit": 11,
      "h3": "8a60145b0cb7fff",
      "lat": 12.99653,
      "lng": 77.58437,
      "shift": "morning",
      "anchor_pcis": 70.3,
      "cells_cleared": 3,
      "impact_removed": 159.7,
      "police_station": "Sheshadripuram"
    },
    {
      "unit": 12,
      "h3": "8a60145b5517fff",
      "lat": 12.97727,
      "lng": 77.5765,
      "shift": "morning",
      "anchor_pcis": 69.8,
      "cells_cleared": 8,
      "impact_removed": 494.1,
      "police_station": "Upparpet"
    },
    {
      "unit": 13,
      "h3": "8a60169052dffff",
      "lat": 13.18371,
      "lng": 77.67962,
      "shift": "afternoon",
      "anchor_pcis": 69.8,
      "cells_cleared": 2,
      "impact_removed": 119.3,
      "police_station": "Chikkajala"
    },
    {
      "unit": 14,
      "h3": "8a601690192ffff",
      "lat": 13.18437,
      "lng": 77.67975,
      "shift": "night",
      "anchor_pcis": 69.6,
      "cells_cleared": 3,
      "impact_removed": 178.4,
      "police_station": "Chikkajala"
    },
    {
      "unit": 15,
      "h3": "8a60145a24f7fff",
      "lat": 12.97352,
      "lng": 77.55112,
      "shift": "morning",
      "anchor_pcis": 69.2,
      "cells_cleared": 5,
      "impact_removed": 273.9,
      "police_station": "Magadi Road"
    },
    {
      "unit": 16,
      "h3": "8a618925b02ffff",
      "lat": 12.955,
      "lng": 77.58556,
      "shift": "night",
      "anchor_pcis": 69.1,
      "cells_cleared": 2,
      "impact_removed": 115.3,
      "police_station": "Wilson Garden"
    },
    {
      "unit": 17,
      "h3": "8a60145b10d7fff",
      "lat": 12.98953,
      "lng": 77.55053,
      "shift": "morning",
      "anchor_pcis": 68.7,
      "cells_cleared": 2,
      "impact_removed": 127.0,
      "police_station": "Rajajinagar"
    },
    {
      "unit": 18,
      "h3": "8a61892e9b9ffff",
      "lat": 12.98083,
      "lng": 77.60991,
      "shift": "morning",
      "anchor_pcis": 68.5,
      "cells_cleared": 12,
      "impact_removed": 705.0,
      "police_station": "Shivajinagar"
    },
    {
      "unit": 19,
      "h3": "8a61892e9aaffff",
      "lat": 12.98071,
      "lng": 77.60756,
      "shift": "morning",
      "anchor_pcis": 68.5,
      "cells_cleared": 12,
      "impact_removed": 464.9,
      "police_station": "Shivajinagar"
    },
    {
      "unit": 20,
      "h3": "8a60145b0957fff",
      "lat": 12.98393,
      "lng": 77.57793,
      "shift": "morning",
      "anchor_pcis": 68.3,
      "cells_cleared": 3,
      "impact_removed": 169.6,
      "police_station": "High ground"
    },
    {
      "unit": 21,
      "h3": "8a618925c02ffff",
      "lat": 12.92475,
      "lng": 77.61844,
      "shift": "night",
      "anchor_pcis": 68.2,
      "cells_cleared": 4,
      "impact_removed": 242.0,
      "police_station": "Madiwala"
    },
    {
      "unit": 22,
      "h3": "8a61892ecbaffff",
      "lat": 12.97076,
      "lng": 77.64736,
      "shift": "morning",
      "anchor_pcis": 68.0,
      "cells_cleared": 8,
      "impact_removed": 392.9,
      "police_station": "Jeevanbheemanagar"
    },
    {
      "unit": 23,
      "h3": "8a6189259b97fff",
      "lat": 12.92819,
      "lng": 77.58072,
      "shift": "morning",
      "anchor_pcis": 68.0,
      "cells_cleared": 8,
      "impact_removed": 435.7,
      "police_station": "Jayanagara"
    },
    {
      "unit": 24,
      "h3": "8a6189209257fff",
      "lat": 12.93281,
      "lng": 77.68847,
      "shift": "morning",
      "anchor_pcis": 67.8,
      "cells_cleared": 4,
      "impact_removed": 237.3,
      "police_station": "HAL Old Airport"
    },
    {
      "unit": 25,
      "h3": "8a60145a6d4ffff",
      "lat": 12.9453,
      "lng": 77.57117,
      "shift": "morning",
      "anchor_pcis": 67.8,
      "cells_cleared": 4,
      "impact_removed": 216.9,
      "police_station": "Basavanagudi"
    },
    {
      "unit": 26,
      "h3": "8a60145b5d9ffff",
      "lat": 12.9734,
      "lng": 77.58013,
      "shift": "morning",
      "anchor_pcis": 67.5,
      "cells_cleared": 8,
      "impact_removed": 491.4,
      "police_station": "Upparpet"
    },
    {
      "unit": 27,
      "h3": "8a6189258927fff",
      "lat": 12.93033,
      "lng": 77.60969,
      "shift": "night",
      "anchor_pcis": 67.4,
      "cells_cleared": 2,
      "impact_removed": 126.6,
      "police_station": "Mico Layout"
    },
    {
      "unit": 28,
      "h3": "8a6189254537fff",
      "lat": 12.93098,
      "lng": 77.68582,
      "shift": "morning",
      "anchor_pcis": 66.7,
      "cells_cleared": 5,
      "impact_removed": 205.5,
      "police_station": "HAL Old Airport"
    },
    {
      "unit": 29,
      "h3": "8a6189259817fff",
      "lat": 12.9272,
      "lng": 77.58626,
      "shift": "morning",
      "anchor_pcis": 66.6,
      "cells_cleared": 6,
      "impact_removed": 343.0,
      "police_station": "Jayanagara"
    },
    {
      "unit": 30,
      "h3": "8a618925c6a7fff",
      "lat": 12.93602,
      "lng": 77.61595,
      "shift": "morning",
      "anchor_pcis": 66.4,
      "cells_cleared": 6,
      "impact_removed": 327.3,
      "police_station": "Adugodi"
    }
  ]
}